{
    "origins": [
        {"name": "Alex Walker", "lat": 55.84, "lon": -4.2},
        {"name": "Alice Wong", "lat": 51.50, "lon": -0.42},
        {"name": "Amelia Green", "lat": 51.51, "lon": -2.24},
        {"name": "Andrea Schaffer", "lat": 51.77, "lon": -1.27},
        {"name": "Andrew Brown", "lat": 54.97, "lon": -1.61},
        {"name": "Arina Tamborska", "lat": 51.51, "lon": -0.25},
        {"name": "Becky Smith", "lat": 55.95, "lon": -3.17},
        {"name": "Ben Butler-Cole", "lat": 50.48, "lon": -3.66},
        {"name": "Ben Goldacre", "lat": 51.75, "lon": -1.26},
        {"name": "Caroline Walters", "lat": 51.47, "lon": -0.96},
        {"name": "Catherine Stables", "lat": 55.93, "lon": -3.19},
        {"name": "Chris Wood", "lat": 51.45, "lon": 0},
        {"name": "Colm Andrews", "lat": 51.78, "lon": -1.49},
        {"name": "Dave Evans", "lat": 51.43, "lon": -0.12},
        {"name": "Eli Holderness", "lat": 53.36, "lon": -1.50},
        {"name": "Freddie Longfoot", "lat": 51.75, "lon": -1.23},
        {"name": "Giles Turnbull", "lat": 51.34, "lon": -2.24},
        {"name": "Helen Curtis", "lat": 51.87, "lon": -2.06},
        {"name": "Hilary Winstanly", "lat": 51.81, "lon": -1.39},
        {"name": "Iain Dillingham", "lat": 51.7367, "lon": -2.1623},
        {"name": "Jaidip Gill", "lat": 52.48, "lon": -1.96},
        {"name": "Jon Massey", "lat": 51.47, "lon": -2.57},
        {"name": "Katie Bickford", "lat": 53.48, "lon": -2.24},
        {"name": "Klaudia Budniak", "lat": 51.75, "lon": -1.3},
        {"name": "Liam Hart", "lat": 51.83, "lon": -2.20},
        {"name": "Linda Roy", "lat": 50.76, "lon": -1.29},
        {"name": "Lizzie Rafii-Tabar", "lat": 51.52, "lon": -0.91},
        {"name": "Louis Fisher", "lat": 52.85, "lon": -3.05},
        {"name": "Lucy Bridges", "lat": 53.45, "lon": -2.14},
        {"name": "Martina Pesce", "lat": 51.52, "lon": -0.13},
        {"name": "Mary Yip", "lat": 51.42, "lon": -0.20},
        {"name": "Mike Kelly", "lat": 51.43, "lon": -2.6},
        {"name": "Milan Wiedemann", "lat": 51.7, "lon": -1.23},
        {"name": "Nick DeVito", "lat": 51.74, "lon": -1.26},
        {"name": "Pete Stokes", "lat": 50.85, "lon": -1.04},
        {"name": "Peter Inglesby", "lat": 51.75, "lon": -2.28},
        {"name": "Providence Onyenekwe", "lat": 51.45, "lon": -0.97},
        {"name": "Richard Croker", "lat": 51.02, "lon": -4.22},
        {"name": "Richard Williams", "lat": 53.45, "lon": -2.61},
        {"name": "Rose Higgins", "lat": 51.5, "lon": -0.07},
        {"name": "Seb Bacon", "lat": 51.74, "lon": -2.2},
        {"name": "Simon Davy", "lat": 53.84, "lon": -1.5},
        {"name": "Stephen Black", "lat": 52.12, "lon": -0.51},
        {"name": "Steven Maude", "lat": 53.82, "lon": -1.8},
        {"name": "Thomas O'Dwyer", "lat": 51.46, "lon": -2.54},
        {"name": "Tom Palmer", "lat": 51.49, "lon": -2.58},
        {"name": "Tom Ward", "lat": 51.46, "lon": -0.03},
        {"name": "Vicky Speed", "lat": 50.92, "lon": -1.61},
        {"name": "Viveck Kingsley", "lat": 51.52, "lon": -0.21},
        {"name": "Will Hulme", "lat": 51.75, "lon": -1.21}
    ],
    "destinations": [
      {"name": "Birmingham", "lat": 52.4862, "lon": -1.8904},
      {"name": "Manchester", "lat": 53.4808, "lon": -2.2426},
      {"name": "Leeds", "lat": 53.8008, "lon": -1.5491},
      {"name": "Liverpool", "lat": 53.4084, "lon": -2.9916},
      {"name": "Sheffield", "lat": 53.3811, "lon": -1.4701},
      {"name": "Bristol", "lat": 51.4545, "lon": -2.5879},
      {"name": "Newcastle upon Tyne", "lat": 54.9783, "lon": -1.6178},
      {"name": "Leicester", "lat": 52.6369, "lon": -1.1398},
      {"name": "York", "lat": 53.9599, "lon": -1.0873},
      {"name": "Oxford", "lat": 51.7520, "lon": -1.2577},
      {"name": "Cambridge", "lat": 52.2053, "lon": 0.1218},
      {"name": "Brighton", "lat": 50.8229, "lon": -0.1363},
      {"name": "Nottingham", "lat": 52.9548, "lon": -1.1581},
      {"name": "Southampton", "lat": 50.9097, "lon": -1.4044},
      {"name": "Portsmouth", "lat": 50.8198, "lon": -1.0880},
      {"name": "Reading", "lat": 51.4543, "lon": -0.9781},
      {"name": "Coventry", "lat": 52.4068, "lon": -1.5197},
      {"name": "Hull", "lat": 53.7446, "lon": -0.3367},
      {"name": "Norwich", "lat": 52.6309, "lon": 1.2974},
      {"name": "Harrogate", "lat": 53.9920, "lon": -1.5370},
      {"name": "Bath", "lat": 51.3811, "lon": -2.3590},
      {"name": "Chester", "lat": 53.1937, "lon": -2.8932},
      {"name": "Durham", "lat": 54.7753, "lon": -1.5849},
      {"name": "Exeter", "lat": 50.7184, "lon": -3.5339},
      {"name": "Cheltenham", "lat": 51.8959, "lon": -2.0783},
      {"name": "Blackpool", "lat": 53.8175, "lon": -3.0357},
      {"name": "Milton Keynes", "lat": 52.0406, "lon": -0.7594},
      {"name": "Warwick", "lat": 52.2823, "lon": -1.5832},
      {"name": "Lincoln", "lat": 53.2307, "lon": -0.5406},
      {"name": "Swindon", "lat": 51.5556, "lon": -1.7784},
      {"name": "Northampton", "lat": 52.2405, "lon": -0.9027},
      {"name": "Canterbury", "lat": 51.2800, "lon": 1.0789},
      {"name": "Colchester", "lat": 51.8959, "lon": 0.8919},
      {"name": "Ipswich", "lat": 52.0567, "lon": 1.1482},
      {"name": "Lancaster", "lat": 54.0466, "lon": -2.8007},
      {"name": "Peterborough", "lat": 52.5725, "lon": -0.2432},
      {"name": "Plymouth", "lat": 50.3755, "lon": -4.1427},
      {"name": "Stoke-on-Trent", "lat": 53.0027, "lon": -2.1794},
      {"name": "Worcester", "lat": 52.1937, "lon": -2.2215}
    ]
  }
